{
"type": "FeatureCollection",
"name": "waypoints",
"features": [
{ "type": "Feature", "properties": { "name": "A Gudiña" }, "geometry": { "type": "Point", "coordinates": [ -7.1366594, 42.0610118 ] } },
{ "type": "Feature", "properties": { "name": "A Laxe / Bendoiro" }, "geometry": { "type": "Point", "coordinates": [ -8.1634162, 42.6762437 ] } },
{ "type": "Feature", "properties": { "name": "A Laxe / Bendoiro" }, "geometry": { "type": "Point", "coordinates": [ -8.1634162, 42.6762437 ] } },
{ "type": "Feature", "properties": { "name": "Alberguería" }, "geometry": { "type": "Point", "coordinates": [ -7.5512967, 42.1217656 ] } },
{ "type": "Feature", "properties": { "name": "Alcuéscar" }, "geometry": { "type": "Point", "coordinates": [ -6.2376629, 39.1813881 ] } },
{ "type": "Feature", "properties": { "name": "Aldea del Cano" }, "geometry": { "type": "Point", "coordinates": [ -6.320245, 39.2865345 ] } },
{ "type": "Feature", "properties": { "name": "Aldeanueva del Camino" }, "geometry": { "type": "Point", "coordinates": [ -5.9285064, 40.2594482 ] } },
{ "type": "Feature", "properties": { "name": "Aljucén" }, "geometry": { "type": "Point", "coordinates": [ -6.3307449, 39.0437419 ] } },
{ "type": "Feature", "properties": { "name": "Almadén de la Plata" }, "geometry": { "type": "Point", "coordinates": [ -6.0798008, 37.8735743 ] } },
{ "type": "Feature", "properties": { "name": "As Eiras" }, "geometry": { "type": "Point", "coordinates": [ -7.4075699, 42.0619153 ] } },
{ "type": "Feature", "properties": { "name": "Asturianos" }, "geometry": { "type": "Point", "coordinates": [ -6.49027, 42.0513085 ] } },
{ "type": "Feature", "properties": { "name": "Bandeira" }, "geometry": { "type": "Point", "coordinates": [ -8.302178, 42.7285641 ] } },
{ "type": "Feature", "properties": { "name": "Baños de Montemayor" }, "geometry": { "type": "Point", "coordinates": [ -5.8576965, 40.3177606 ] } },
{ "type": "Feature", "properties": { "name": "Cáceres" }, "geometry": { "type": "Point", "coordinates": [ -6.3701985, 39.4746364 ] } },
{ "type": "Feature", "properties": { "name": "Calzada de Béjar" }, "geometry": { "type": "Point", "coordinates": [ -5.8165597, 40.4093092 ] } },
{ "type": "Feature", "properties": { "name": "Calzada de Valdunciel" }, "geometry": { "type": "Point", "coordinates": [ -5.703405, 41.0881247 ] } },
{ "type": "Feature", "properties": { "name": "Calzadilla de los Barros" }, "geometry": { "type": "Point", "coordinates": [ -6.317622, 38.300894 ] } },
{ "type": "Feature", "properties": { "name": "Calzadilla de Tera" }, "geometry": { "type": "Point", "coordinates": [ -6.0818982, 41.9798479 ] } },
{ "type": "Feature", "properties": { "name": "Campobecerros" }, "geometry": { "type": "Point", "coordinates": [ -7.3305118, 42.0672448 ] } },
{ "type": "Feature", "properties": { "name": "Cañaveral" }, "geometry": { "type": "Point", "coordinates": [ -6.3920558, 39.79032 ] } },
{ "type": "Feature", "properties": { "name": "Carcaboso" }, "geometry": { "type": "Point", "coordinates": [ -6.213173, 40.0493359 ] } },
{ "type": "Feature", "properties": { "name": "Casar de Cáceres" }, "geometry": { "type": "Point", "coordinates": [ -6.417056, 39.561523 ] } },
{ "type": "Feature", "properties": { "name": "Castilblanco de los Arroyos" }, "geometry": { "type": "Point", "coordinates": [ -5.9890509, 37.6744629 ] } },
{ "type": "Feature", "properties": { "name": "Cea" }, "geometry": { "type": "Point", "coordinates": [ -7.9850018, 42.4750502 ] } },
{ "type": "Feature", "properties": { "name": "Cea" }, "geometry": { "type": "Point", "coordinates": [ -7.9850293, 42.4750222 ] } },
{ "type": "Feature", "properties": { "name": "Cea" }, "geometry": { "type": "Point", "coordinates": [ -7.9850018, 42.4750502 ] } },
{ "type": "Feature", "properties": { "name": "Deseiro" }, "geometry": { "type": "Point", "coordinates": [ -8.4899562, 42.8273075 ] } },
{ "type": "Feature", "properties": { "name": "Dornelas" }, "geometry": { "type": "Point", "coordinates": [ -8.3372087, 42.753476 ] } },
{ "type": "Feature", "properties": { "name": "El Carrascalejo" }, "geometry": { "type": "Point", "coordinates": [ -6.3377378, 39.023829 ] } },
{ "type": "Feature", "properties": { "name": "El Cubo de Tierra del Vino" }, "geometry": { "type": "Point", "coordinates": [ -5.7089264, 41.2526055 ] } },
{ "type": "Feature", "properties": { "name": "El Real de la Jara" }, "geometry": { "type": "Point", "coordinates": [ -6.1516484, 37.9494443 ] } },
{ "type": "Feature", "properties": { "name": "Fontanillas de Castro" }, "geometry": { "type": "Point", "coordinates": [ -5.7803652, 41.7336708 ] } },
{ "type": "Feature", "properties": { "name": "UNKNOWN" }, "geometry": { "type": "Point", "coordinates": [ -6.3086304, 38.2467422 ] } },
{ "type": "Feature", "properties": { "name": "Fuenterroble de Salvatierra" }, "geometry": { "type": "Point", "coordinates": [ -5.7317624, 40.564985 ] } },
{ "type": "Feature", "properties": { "name": "Fuenterroble de Salvatierra" }, "geometry": { "type": "Point", "coordinates": [ -5.731914, 40.5649797 ] } },
{ "type": "Feature", "properties": { "name": "Galisteo" }, "geometry": { "type": "Point", "coordinates": [ -6.2656044, 39.9740045 ] } },
{ "type": "Feature", "properties": { "name": "Granja de Moreruela" }, "geometry": { "type": "Point", "coordinates": [ -5.739056, 41.8093775 ] } },
{ "type": "Feature", "properties": { "name": "Grimaldo (turnoff)" }, "geometry": { "type": "Point", "coordinates": [ -6.3549553, 39.8426478 ] } },
{ "type": "Feature", "properties": { "name": "Guillena" }, "geometry": { "type": "Point", "coordinates": [ -6.0521598, 37.5423254 ] } },
{ "type": "Feature", "properties": { "name": "La Almazara (turnoff)" }, "geometry": { "type": "Point", "coordinates": [ -6.3641065, 38.5095292 ] } },
{ "type": "Feature", "properties": { "name": "Laza" }, "geometry": { "type": "Point", "coordinates": [ -7.4610767, 42.0613239 ] } },
{ "type": "Feature", "properties": { "name": "Los Santos de Maimona" }, "geometry": { "type": "Point", "coordinates": [ -6.3841717, 38.4489021 ] } },
{ "type": "Feature", "properties": { "name": "Lubián" }, "geometry": { "type": "Point", "coordinates": [ -6.901576, 42.034577 ] } },
{ "type": "Feature", "properties": { "name": "Mérida" }, "geometry": { "type": "Point", "coordinates": [ -6.3526529, 38.9201673 ] } },
{ "type": "Feature", "properties": { "name": "Mombuey" }, "geometry": { "type": "Point", "coordinates": [ -6.3274644, 42.0230708 ] } },
{ "type": "Feature", "properties": { "name": "Monesterio" }, "geometry": { "type": "Point", "coordinates": [ -6.2708657, 38.0860272 ] } },
{ "type": "Feature", "properties": { "name": "Montamarta" }, "geometry": { "type": "Point", "coordinates": [ -5.8010743, 41.6432175 ] } },
{ "type": "Feature", "properties": { "name": "Morille" }, "geometry": { "type": "Point", "coordinates": [ -5.6996994, 40.8049263 ] } },
{ "type": "Feature", "properties": { "name": "Morille" }, "geometry": { "type": "Point", "coordinates": [ -5.6997727, 40.8048611 ] } },
{ "type": "Feature", "properties": { "name": "Oliva de Plasencia (turnoff)" }, "geometry": { "type": "Point", "coordinates": [ -6.1562466, 40.1316413 ] } },
{ "type": "Feature", "properties": { "name": "Olleros de Tera" }, "geometry": { "type": "Point", "coordinates": [ -6.1007347, 41.983997 ] } },
{ "type": "Feature", "properties": { "name": "Oseira" }, "geometry": { "type": "Point", "coordinates": [ -7.9502222, 42.5391389 ] } },
{ "type": "Feature", "properties": { "name": "Ourense / Orense" }, "geometry": { "type": "Point", "coordinates": [ -7.8640278, 42.3354444 ] } },
{ "type": "Feature", "properties": { "name": "Ourense / Orense" }, "geometry": { "type": "Point", "coordinates": [ -7.864035, 42.3352834 ] } },
{ "type": "Feature", "properties": { "name": "Outeiro" }, "geometry": { "type": "Point", "coordinates": [ -8.4340508, 42.7913337 ] } },
{ "type": "Feature", "properties": { "name": "Pedrosillo de los Aires" }, "geometry": { "type": "Point", "coordinates": [ -5.7049705, 40.7148149 ] } },
{ "type": "Feature", "properties": { "name": "Piñor" }, "geometry": { "type": "Point", "coordinates": [ -8.007965, 42.5100297 ] } },
{ "type": "Feature", "properties": { "name": "Ponte Ulla" }, "geometry": { "type": "Point", "coordinates": [ -8.4025237, 42.7785048 ] } },
{ "type": "Feature", "properties": { "name": "Puebla de Sanabria" }, "geometry": { "type": "Point", "coordinates": [ -6.629157, 42.0543073 ] } },
{ "type": "Feature", "properties": { "name": "Puente de Béjar" }, "geometry": { "type": "Point", "coordinates": [ -5.8475165, 40.3431946 ] } },
{ "type": "Feature", "properties": { "name": "Requejo de Sanabria" }, "geometry": { "type": "Point", "coordinates": [ -6.7432201, 42.0305593 ] } },
{ "type": "Feature", "properties": { "name": "Ríolobos (turnoff)" }, "geometry": { "type": "Point", "coordinates": [ -6.2904855, 39.8868125 ] } },
{ "type": "Feature", "properties": { "name": "Rionegro del Puente" }, "geometry": { "type": "Point", "coordinates": [ -6.2276607, 42.0065144 ] } },
{ "type": "Feature", "properties": { "name": "Salamanca" }, "geometry": { "type": "Point", "coordinates": [ -5.6670139, 40.9607961 ] } },
{ "type": "Feature", "properties": { "name": "San Pedro de Rozados" }, "geometry": { "type": "Point", "coordinates": [ -5.7371511, 40.7895753 ] } },
{ "type": "Feature", "properties": { "name": "Santa Marta de Tera" }, "geometry": { "type": "Point", "coordinates": [ -5.9712738, 41.9948382 ] } },
{ "type": "Feature", "properties": { "name": "Santa Marta de Tera" }, "geometry": { "type": "Point", "coordinates": [ -5.9711203, 41.9947447 ] } },
{ "type": "Feature", "properties": { "name": "Santiago de Compostela" }, "geometry": { "type": "Point", "coordinates": [ -8.5457291, 42.8804726 ] } },
{ "type": "Feature", "properties": { "name": "Santiponce" }, "geometry": { "type": "Point", "coordinates": [ -6.039317, 37.4373343 ] } },
{ "type": "Feature", "properties": { "name": "Sevilla / Seville" }, "geometry": { "type": "Point", "coordinates": [ -5.9929894, 37.385105 ] } },
{ "type": "Feature", "properties": { "name": "Silleda" }, "geometry": { "type": "Point", "coordinates": [ -8.2471048, 42.6974311 ] } },
{ "type": "Feature", "properties": { "name": "Tábara" }, "geometry": { "type": "Point", "coordinates": [ -5.9574493, 41.8279567 ] } },
{ "type": "Feature", "properties": { "name": "Tábara" }, "geometry": { "type": "Point", "coordinates": [ -5.9576552, 41.8280587 ] } },
{ "type": "Feature", "properties": { "name": "Torremejía" }, "geometry": { "type": "Point", "coordinates": [ -6.3779329, 38.7922312 ] } },
{ "type": "Feature", "properties": { "name": "Valdesalor" }, "geometry": { "type": "Point", "coordinates": [ -6.3466325, 39.3781151 ] } },
{ "type": "Feature", "properties": { "name": "Valverde de Valdelacasa" }, "geometry": { "type": "Point", "coordinates": [ -5.7818397, 40.4814794 ] } },
{ "type": "Feature", "properties": { "name": "Vilar de Barrio" }, "geometry": { "type": "Point", "coordinates": [ -7.6111063, 42.1603075 ] } },
{ "type": "Feature", "properties": { "name": "Villafranca de los Barros" }, "geometry": { "type": "Point", "coordinates": [ -6.3396515, 38.5597285 ] } },
{ "type": "Feature", "properties": { "name": "Villanueva de Campeán" }, "geometry": { "type": "Point", "coordinates": [ -5.7704951, 41.3540996 ] } },
{ "type": "Feature", "properties": { "name": "Villanueva de las Peras" }, "geometry": { "type": "Point", "coordinates": [ -5.9806194, 41.934362 ] } },
{ "type": "Feature", "properties": { "name": "Villar de Farfón" }, "geometry": { "type": "Point", "coordinates": [ -6.1699329, 41.9788461 ] } },
{ "type": "Feature", "properties": { "name": "Xunqueira de Ambía" }, "geometry": { "type": "Point", "coordinates": [ -7.7351301, 42.2047232 ] } },
{ "type": "Feature", "properties": { "name": "Zafra" }, "geometry": { "type": "Point", "coordinates": [ -6.4193701, 38.4253195 ] } },
{ "type": "Feature", "properties": { "name": "Zamora" }, "geometry": { "type": "Point", "coordinates": [ -5.7481971, 41.5011679 ] } },
{ "type": "Feature", "properties": { "name": "Camas" }, "geometry": { "type": "Point", "coordinates": [ -6.034656, 37.397845 ] } },
{ "type": "Feature", "properties": { "name": "Complejo Leo" }, "geometry": { "type": "Point", "coordinates": [ -6.220591, 38.028951 ] } },
{ "type": "Feature", "properties": { "name": "Puebla de Sancho Pérez" }, "geometry": { "type": "Point", "coordinates": [ -6.40208, 38.396928 ] } },
{ "type": "Feature", "properties": { "name": "Almendralejo" }, "geometry": { "type": "Point", "coordinates": [ -6.40497, 38.684554 ] } },
{ "type": "Feature", "properties": { "name": "Embalse de Prosperina" }, "geometry": { "type": "Point", "coordinates": [ -6.363712, 38.970422 ] } },
{ "type": "Feature", "properties": { "name": "Basílica Santa Lucía" }, "geometry": { "type": "Point", "coordinates": [ -6.222598, 39.152812 ] } },
{ "type": "Feature", "properties": { "name": "Casas de Don Antonio" }, "geometry": { "type": "Point", "coordinates": [ -6.291348, 39.236102 ] } },
{ "type": "Feature", "properties": { "name": "Ventaquemada" }, "geometry": { "type": "Point", "coordinates": [ -6.156191, 40.131716 ] } },
{ "type": "Feature", "properties": { "name": "Oliva de Placencia" }, "geometry": { "type": "Point", "coordinates": [ -6.085923, 40.111979 ] } },
{ "type": "Feature", "properties": { "name": "Hostal Asturias" }, "geometry": { "type": "Point", "coordinates": [ -6.007919, 40.18658 ] } },
{ "type": "Feature", "properties": { "name": "Hotel Jarilla" }, "geometry": { "type": "Point", "coordinates": [ -6.004569, 40.18843 ] } },
{ "type": "Feature", "properties": { "name": "Hostal El Avión" }, "geometry": { "type": "Point", "coordinates": [ -6.043557, 40.142529 ] } },
{ "type": "Feature", "properties": { "name": "Cáparra" }, "geometry": { "type": "Point", "coordinates": [ -6.100981, 40.166578 ] } },
{ "type": "Feature", "properties": { "name": "Valdelacasa" }, "geometry": { "type": "Point", "coordinates": [ -5.762474, 40.506102 ] } },
{ "type": "Feature", "properties": { "name": "Pico de la Dueña" }, "geometry": { "type": "Point", "coordinates": [ -5.767772, 40.685929 ] } },
{ "type": "Feature", "properties": { "name": "Monterrubio de la Sierra" }, "geometry": { "type": "Point", "coordinates": [ -5.693615, 40.755506 ] } },
{ "type": "Feature", "properties": { "name": "Miranda de Azán" }, "geometry": { "type": "Point", "coordinates": [ -5.6836, 40.886528 ] } },
{ "type": "Feature", "properties": { "name": "Aldeaseca de la Almuña" }, "geometry": { "type": "Point", "coordinates": [ -5.671278, 41.019256 ] } },
{ "type": "Feature", "properties": { "name": "Castellanos de Villiquera" }, "geometry": { "type": "Point", "coordinates": [ -5.694559, 41.051426 ] } },
{ "type": "Feature", "properties": { "name": "San Marcial" }, "geometry": { "type": "Point", "coordinates": [ -5.784123, 41.398128 ] } },
{ "type": "Feature", "properties": { "name": "Roales del Pan" }, "geometry": { "type": "Point", "coordinates": [ -5.773839, 41.552555 ] } },
{ "type": "Feature", "properties": { "name": "Bercianos de Valverde" }, "geometry": { "type": "Point", "coordinates": [ -5.955069, 41.931606 ] } },
{ "type": "Feature", "properties": { "name": "Santa Croya de Tera" }, "geometry": { "type": "Point", "coordinates": [ -5.9745, 41.983637 ] } },
{ "type": "Feature", "properties": { "name": "Camarzana de Tera" }, "geometry": { "type": "Point", "coordinates": [ -6.026114, 41.995414 ] } },
{ "type": "Feature", "properties": { "name": "Embalse de Agavanzal" }, "geometry": { "type": "Point", "coordinates": [ -6.141311, 41.978314 ] } },
{ "type": "Feature", "properties": { "name": "El Empalme" }, "geometry": { "type": "Point", "coordinates": [ -6.26304, 42.010689 ] } },
{ "type": "Feature", "properties": { "name": "Valdemerilla" }, "geometry": { "type": "Point", "coordinates": [ -6.378382, 42.014483 ] } },
{ "type": "Feature", "properties": { "name": "Cernadilla" }, "geometry": { "type": "Point", "coordinates": [ -6.417492, 42.020352 ] } },
{ "type": "Feature", "properties": { "name": "San Salvador de Palazuelo" }, "geometry": { "type": "Point", "coordinates": [ -6.438309, 42.021991 ] } },
{ "type": "Feature", "properties": { "name": "Palacios de Sanabria" }, "geometry": { "type": "Point", "coordinates": [ -6.522018, 42.059429 ] } },
{ "type": "Feature", "properties": { "name": "Remesal" }, "geometry": { "type": "Point", "coordinates": [ -6.548812, 42.057708 ] } },
{ "type": "Feature", "properties": { "name": "Otero de Sanabria" }, "geometry": { "type": "Point", "coordinates": [ -6.574425, 42.049732 ] } },
{ "type": "Feature", "properties": { "name": "Triufé" }, "geometry": { "type": "Point", "coordinates": [ -6.593763, 42.061423 ] } },
{ "type": "Feature", "properties": { "name": "Terroso" }, "geometry": { "type": "Point", "coordinates": [ -6.726531, 42.035346 ] } },
{ "type": "Feature", "properties": { "name": "1,365m" }, "geometry": { "type": "Point", "coordinates": [ -6.820575, 42.033794 ] } },
{ "type": "Feature", "properties": { "name": "Padornelo" }, "geometry": { "type": "Point", "coordinates": [ -6.836006, 42.033244 ] } },
{ "type": "Feature", "properties": { "name": "Santuario de La Tuiza" }, "geometry": { "type": "Point", "coordinates": [ -6.925371, 42.031165 ] } },
{ "type": "Feature", "properties": { "name": "1,260m Galicia!" }, "geometry": { "type": "Point", "coordinates": [ -6.9644, 42.033336 ] } },
{ "type": "Feature", "properties": { "name": "A Canda" }, "geometry": { "type": "Point", "coordinates": [ -6.979882, 42.035006 ] } },
{ "type": "Feature", "properties": { "name": "Vilavella" }, "geometry": { "type": "Point", "coordinates": [ -7.014242, 42.03746 ] } },
{ "type": "Feature", "properties": { "name": "O Pereiro" }, "geometry": { "type": "Point", "coordinates": [ -7.052332, 42.031241 ] } },
{ "type": "Feature", "properties": { "name": "O Cañizo" }, "geometry": { "type": "Point", "coordinates": [ -7.101632, 42.050865 ] } },
{ "type": "Feature", "properties": { "name": "A Venda Da Teresa" }, "geometry": { "type": "Point", "coordinates": [ -7.212515, 42.076871 ] } },
{ "type": "Feature", "properties": { "name": "A Venda Da Capela" }, "geometry": { "type": "Point", "coordinates": [ -7.232067, 42.069733 ] } },
{ "type": "Feature", "properties": { "name": "A Venda do Bolaño" }, "geometry": { "type": "Point", "coordinates": [ -7.266284, 42.066182 ] } },
{ "type": "Feature", "properties": { "name": "Portocamba" }, "geometry": { "type": "Point", "coordinates": [ -7.364403, 42.069525 ] } },
{ "type": "Feature", "properties": { "name": "Soutelo Verde" }, "geometry": { "type": "Point", "coordinates": [ -7.495289, 42.077245 ] } },
{ "type": "Feature", "properties": { "name": "Tamicelas" }, "geometry": { "type": "Point", "coordinates": [ -7.507317, 42.099097 ] } },
{ "type": "Feature", "properties": { "name": "Bóveda" }, "geometry": { "type": "Point", "coordinates": [ -7.633819, 42.164463 ] } },
{ "type": "Feature", "properties": { "name": "Vilar de Gomareite" }, "geometry": { "type": "Point", "coordinates": [ -7.644815, 42.164653 ] } },
{ "type": "Feature", "properties": { "name": "Padroso" }, "geometry": { "type": "Point", "coordinates": [ -7.703757, 42.181418 ] } },
{ "type": "Feature", "properties": { "name": "A Pousa" }, "geometry": { "type": "Point", "coordinates": [ -7.750097, 42.226056 ] } },
{ "type": "Feature", "properties": { "name": "Ousende" }, "geometry": { "type": "Point", "coordinates": [ -7.762095, 42.253499 ] } },
{ "type": "Feature", "properties": { "name": "Penelas" }, "geometry": { "type": "Point", "coordinates": [ -7.770534, 42.256448 ] } },
{ "type": "Feature", "properties": { "name": "Venda do Rio" }, "geometry": { "type": "Point", "coordinates": [ -7.792444, 42.264349 ] } },
{ "type": "Feature", "properties": { "name": "Pereiras" }, "geometry": { "type": "Point", "coordinates": [ -7.798641, 42.265023 ] } },
{ "type": "Feature", "properties": { "name": "A Castellana" }, "geometry": { "type": "Point", "coordinates": [ -7.816876, 42.279037 ] } },
{ "type": "Feature", "properties": { "name": "Reboredo" }, "geometry": { "type": "Point", "coordinates": [ -7.834847, 42.290198 ] } },
{ "type": "Feature", "properties": { "name": "Seixalbo" }, "geometry": { "type": "Point", "coordinates": [ -7.856532, 42.304959 ] } },
{ "type": "Feature", "properties": { "name": "Cudeiro" }, "geometry": { "type": "Point", "coordinates": [ -7.860991, 42.367563 ] } },
{ "type": "Feature", "properties": { "name": "Tamallancos" }, "geometry": { "type": "Point", "coordinates": [ -7.90189, 42.425804 ] } },
{ "type": "Feature", "properties": { "name": "Bouzas" }, "geometry": { "type": "Point", "coordinates": [ -7.909409, 42.43373 ] } },
{ "type": "Feature", "properties": { "name": "Sobreira" }, "geometry": { "type": "Point", "coordinates": [ -7.926863, 42.444142 ] } },
{ "type": "Feature", "properties": { "name": "Viduedo" }, "geometry": { "type": "Point", "coordinates": [ -7.950005, 42.457133 ] } },
{ "type": "Feature", "properties": { "name": "Casas Novas" }, "geometry": { "type": "Point", "coordinates": [ -7.972666, 42.463671 ] } },
{ "type": "Feature", "properties": { "name": "Quintela" }, "geometry": { "type": "Point", "coordinates": [ -7.902848, 42.355883 ] } },
{ "type": "Feature", "properties": { "name": "Casa César" }, "geometry": { "type": "Point", "coordinates": [ -7.929601, 42.408808 ] } },
{ "type": "Feature", "properties": { "name": "Ponte Mandras" }, "geometry": { "type": "Point", "coordinates": [ -7.951142, 42.432991 ] } },
{ "type": "Feature", "properties": { "name": "Pielas" }, "geometry": { "type": "Point", "coordinates": [ -7.96279, 42.518935 ] } },
{ "type": "Feature", "properties": { "name": "A Gouxa" }, "geometry": { "type": "Point", "coordinates": [ -8.009034, 42.557359 ] } },
{ "type": "Feature", "properties": { "name": "Cotelas" }, "geometry": { "type": "Point", "coordinates": [ -7.99216, 42.488184 ] } },
{ "type": "Feature", "properties": { "name": "Porto do Souto" }, "geometry": { "type": "Point", "coordinates": [ -7.989796, 42.482231 ] } },
{ "type": "Feature", "properties": { "name": "Piñor" }, "geometry": { "type": "Point", "coordinates": [ -8.005207, 42.498328 ] } },
{ "type": "Feature", "properties": { "name": "Fontelo" }, "geometry": { "type": "Point", "coordinates": [ -8.009057, 42.502036 ] } },
{ "type": "Feature", "properties": { "name": "Arenteiro" }, "geometry": { "type": "Point", "coordinates": [ -8.008195, 42.509358 ] } },
{ "type": "Feature", "properties": { "name": "O Reino" }, "geometry": { "type": "Point", "coordinates": [ -8.010261, 42.519564 ] } },
{ "type": "Feature", "properties": { "name": "Puxallos" }, "geometry": { "type": "Point", "coordinates": [ -8.083569, 42.605744 ] } },
{ "type": "Feature", "properties": { "name": "Estación de Lalín" }, "geometry": { "type": "Point", "coordinates": [ -8.142861, 42.632437 ] } },
{ "type": "Feature", "properties": { "name": "A Eirexe" }, "geometry": { "type": "Point", "coordinates": [ -8.153027, 42.660634 ] } },
{ "type": "Feature", "properties": { "name": "Prado" }, "geometry": { "type": "Point", "coordinates": [ -8.183016, 42.683217 ] } },
{ "type": "Feature", "properties": { "name": "A Carballeira" }, "geometry": { "type": "Point", "coordinates": [ -8.383731, 42.773187 ] } },
{ "type": "Feature", "properties": { "name": "O Pineiro" }, "geometry": { "type": "Point", "coordinates": [ -8.520024, 42.845612 ] } },
{ "type": "Feature", "properties": { "name": "Angrois" }, "geometry": { "type": "Point", "coordinates": [ -8.528487, 42.859997 ] } },
{ "type": "Feature", "properties": { "name": "San Gil" }, "geometry": { "type": "Point", "coordinates": [ -6.2469298, 39.9727662 ] } },
{ "type": "Feature", "properties": { "name": "Faramontanos de Tábera" }, "geometry": { "type": "Point", "coordinates": [ -5.888472, 41.834771 ] } },
{ "type": "Feature", "properties": { "name": "Castro Dozón" }, "geometry": { "type": "Point", "coordinates": [ -8.047411, 42.56729 ] } },
{ "type": "Feature", "properties": { "name": "Entrepeñas" }, "geometry": { "type": "Point", "coordinates": [ -6.475603, 42.031273 ] } },
{ "type": "Feature", "properties": { "name": "Cima de Vila" }, "geometry": { "type": "Point", "coordinates": [ -7.929601, 42.408808 ] } },
{ "type": "Feature", "properties": { "name": "Aciberos" }, "geometry": { "type": "Point", "coordinates": [ -6.87471, 42.03946 ] } }
]
}
